{"lat": 40.783, "lon": -119.231, "class": "TPV", "mode": 3}
{"lat": 40.784, "lon": -119.22999999999999, "class": "TPV", "mode": 3}
{"lat": 40.785000000000004, "lon": -119.229, "class": "TPV", "mode": 3}
{"lat": 40.786, "lon": -119.228, "class": "TPV", "mode": 3}
{"lat": 40.787, "lon": -119.22699999999999, "class": "TPV", "mode": 3}
{"lat": 40.788000000000004, "lon": -119.226, "class": "TPV", "mode": 3}
{"lat": 40.789, "lon": -119.225, "class": "TPV", "mode": 3}
{"lat": 40.79, "lon": -119.22399999999999, "class": "TPV", "mode": 3}
{"lat": 40.791000000000004, "lon": -119.223, "class": "TPV", "mode": 3}
{"lat": 40.792, "lon": -119.222, "class": "TPV", "mode": 3}
{"lat": 40.793, "lon": -119.22099999999999, "class": "TPV", "mode": 3}
{"lat": 40.794000000000004, "lon": -119.22, "class": "TPV", "mode": 3}
{"lat": 40.795, "lon": -119.219, "class": "TPV", "mode": 3}
{"lat": 40.796, "lon": -119.21799999999999, "class": "TPV", "mode": 3}
{"lat": 40.797000000000004, "lon": -119.217, "class": "TPV", "mode": 3}
{"lat": 40.798, "lon": -119.216, "class": "TPV", "mode": 3}
{"lat": 40.799, "lon": -119.21499999999999, "class": "TPV", "mode": 3}
{"lat": 40.800000000000004, "lon": -119.214, "class": "TPV", "mode": 3}
{"lat": 40.801, "lon": -119.213, "class": "TPV", "mode": 3}
{"lat": 40.802, "lon": -119.21199999999999, "class": "TPV", "mode": 3}
{"lat": 40.803000000000004, "lon": -119.211, "class": "TPV", "mode": 3}
{"lat": 40.804, "lon": -119.21, "class": "TPV", "mode": 3}
{"lat": 40.805, "lon": -119.20899999999999, "class": "TPV", "mode": 3}
{"lat": 40.806000000000004, "lon": -119.208, "class": "TPV", "mode": 3}
{"lat": 40.807, "lon": -119.207, "class": "TPV", "mode": 3}
{"lat": 40.808, "lon": -119.20599999999999, "class": "TPV", "mode": 3}
{"lat": 40.809000000000005, "lon": -119.205, "class": "TPV", "mode": 3}
{"lat": 40.81, "lon": -119.204, "class": "TPV", "mode": 3}
{"lat": 40.811, "lon": -119.20299999999999, "class": "TPV", "mode": 3}
{"lat": 40.812000000000005, "lon": -119.202, "class": "TPV", "mode": 3}
{"lat": 40.813, "lon": -119.201, "class": "TPV", "mode": 3}
{"lat": 40.814, "lon": -119.19999999999999, "class": "TPV", "mode": 3}
{"lat": 40.815, "lon": -119.199, "class": "TPV", "mode": 3}
{"lat": 40.816, "lon": -119.198, "class": "TPV", "mode": 3}
{"lat": 40.817, "lon": -119.19699999999999, "class": "TPV", "mode": 3}
{"lat": 40.818, "lon": -119.196, "class": "TPV", "mode": 3}
{"lat": 40.819, "lon": -119.195, "class": "TPV", "mode": 3}
{"lat": 40.82, "lon": -119.19399999999999, "class": "TPV", "mode": 3}
{"lat": 40.821, "lon": -119.193, "class": "TPV", "mode": 3}
{"lat": 40.822, "lon": -119.192, "class": "TPV", "mode": 3}
{"lat": 40.823, "lon": -119.19099999999999, "class": "TPV", "mode": 3}
{"lat": 40.824, "lon": -119.19, "class": "TPV", "mode": 3}
{"lat": 40.825, "lon": -119.189, "class": "TPV", "mode": 3}
{"lat": 40.826, "lon": -119.18799999999999, "class": "TPV", "mode": 3}
{"lat": 40.827, "lon": -119.187, "class": "TPV", "mode": 3}
{"lat": 40.828, "lon": -119.18599999999999, "class": "TPV", "mode": 3}
{"lat": 40.829, "lon": -119.18499999999999, "class": "TPV", "mode": 3}
{"lat": 40.83, "lon": -119.184, "class": "TPV", "mode": 3}
{"lat": 40.831, "lon": -119.18299999999999, "class": "TPV", "mode": 3}
{"lat": 40.832, "lon": -119.18199999999999, "class": "TPV", "mode": 3}
{"lat": 40.833, "lon": -119.181, "class": "TPV", "mode": 3}
{"lat": 40.834, "lon": -119.17999999999999, "class": "TPV", "mode": 3}
{"lat": 40.835, "lon": -119.17899999999999, "class": "TPV", "mode": 3}
{"lat": 40.836, "lon": -119.178, "class": "TPV", "mode": 3}
{"lat": 40.837, "lon": -119.17699999999999, "class": "TPV", "mode": 3}
{"lat": 40.838, "lon": -119.17599999999999, "class": "TPV", "mode": 3}
{"lat": 40.839, "lon": -119.175, "class": "TPV", "mode": 3}
{"lat": 40.84, "lon": -119.17399999999999, "class": "TPV", "mode": 3}
{"lat": 40.841, "lon": -119.17299999999999, "class": "TPV", "mode": 3}
{"lat": 40.842, "lon": -119.172, "class": "TPV", "mode": 3}
{"lat": 40.843, "lon": -119.17099999999999, "class": "TPV", "mode": 3}
{"lat": 40.844, "lon": -119.16999999999999, "class": "TPV", "mode": 3}
{"lat": 40.845, "lon": -119.169, "class": "TPV", "mode": 3}
{"lat": 40.846000000000004, "lon": -119.16799999999999, "class": "TPV", "mode": 3}
{"lat": 40.847, "lon": -119.167, "class": "TPV", "mode": 3}
{"lat": 40.848, "lon": -119.166, "class": "TPV", "mode": 3}
{"lat": 40.849000000000004, "lon": -119.16499999999999, "class": "TPV", "mode": 3}
{"lat": 40.85, "lon": -119.164, "class": "TPV", "mode": 3}
{"lat": 40.851, "lon": -119.163, "class": "TPV", "mode": 3}
{"lat": 40.852000000000004, "lon": -119.16199999999999, "class": "TPV", "mode": 3}
{"lat": 40.853, "lon": -119.161, "class": "TPV", "mode": 3}
{"lat": 40.854, "lon": -119.16, "class": "TPV", "mode": 3}
{"lat": 40.855000000000004, "lon": -119.15899999999999, "class": "TPV", "mode": 3}
{"lat": 40.856, "lon": -119.158, "class": "TPV", "mode": 3}
{"lat": 40.857, "lon": -119.157, "class": "TPV", "mode": 3}
{"lat": 40.858000000000004, "lon": -119.15599999999999, "class": "TPV", "mode": 3}
{"lat": 40.859, "lon": -119.155, "class": "TPV", "mode": 3}
{"lat": 40.86, "lon": -119.154, "class": "TPV", "mode": 3}
{"lat": 40.861000000000004, "lon": -119.15299999999999, "class": "TPV", "mode": 3}
{"lat": 40.862, "lon": -119.152, "class": "TPV", "mode": 3}
{"lat": 40.863, "lon": -119.151, "class": "TPV", "mode": 3}
{"lat": 40.864000000000004, "lon": -119.14999999999999, "class": "TPV", "mode": 3}
{"lat": 40.865, "lon": -119.149, "class": "TPV", "mode": 3}
{"lat": 40.866, "lon": -119.148, "class": "TPV", "mode": 3}
{"lat": 40.867000000000004, "lon": -119.14699999999999, "class": "TPV", "mode": 3}
{"lat": 40.868, "lon": -119.146, "class": "TPV", "mode": 3}
{"lat": 40.869, "lon": -119.145, "class": "TPV", "mode": 3}
{"lat": 40.870000000000005, "lon": -119.14399999999999, "class": "TPV", "mode": 3}
{"lat": 40.871, "lon": -119.143, "class": "TPV", "mode": 3}
{"lat": 40.872, "lon": -119.142, "class": "TPV", "mode": 3}
{"lat": 40.873000000000005, "lon": -119.14099999999999, "class": "TPV", "mode": 3}
{"lat": 40.874, "lon": -119.14, "class": "TPV", "mode": 3}
{"lat": 40.875, "lon": -119.139, "class": "TPV", "mode": 3}
{"lat": 40.876000000000005, "lon": -119.13799999999999, "class": "TPV", "mode": 3}
{"lat": 40.877, "lon": -119.137, "class": "TPV", "mode": 3}
{"lat": 40.878, "lon": -119.136, "class": "TPV", "mode": 3}
{"lat": 40.879, "lon": -119.13499999999999, "class": "TPV", "mode": 3}
{"lat": 40.88, "lon": -119.134, "class": "TPV", "mode": 3}
{"lat": 40.881, "lon": -119.133, "class": "TPV", "mode": 3}
{"lat": 40.882, "lon": -119.13199999999999, "class": "TPV", "mode": 3}
{"lat": 40.883, "lon": -119.131, "class": "TPV", "mode": 3}
{"lat": 40.884, "lon": -119.13, "class": "TPV", "mode": 3}
{"lat": 40.885, "lon": -119.12899999999999, "class": "TPV", "mode": 3}
{"lat": 40.886, "lon": -119.128, "class": "TPV", "mode": 3}
{"lat": 40.887, "lon": -119.127, "class": "TPV", "mode": 3}
{"lat": 40.888, "lon": -119.12599999999999, "class": "TPV", "mode": 3}
{"lat": 40.889, "lon": -119.125, "class": "TPV", "mode": 3}
{"lat": 40.89, "lon": -119.124, "class": "TPV", "mode": 3}
{"lat": 40.891, "lon": -119.12299999999999, "class": "TPV", "mode": 3}
{"lat": 40.892, "lon": -119.122, "class": "TPV", "mode": 3}
{"lat": 40.893, "lon": -119.121, "class": "TPV", "mode": 3}
{"lat": 40.894, "lon": -119.11999999999999, "class": "TPV", "mode": 3}
{"lat": 40.895, "lon": -119.119, "class": "TPV", "mode": 3}
{"lat": 40.896, "lon": -119.118, "class": "TPV", "mode": 3}
{"lat": 40.897, "lon": -119.11699999999999, "class": "TPV", "mode": 3}
{"lat": 40.898, "lon": -119.116, "class": "TPV", "mode": 3}
{"lat": 40.899, "lon": -119.115, "class": "TPV", "mode": 3}
{"lat": 40.9, "lon": -119.11399999999999, "class": "TPV", "mode": 3}
{"lat": 40.901, "lon": -119.113, "class": "TPV", "mode": 3}
{"lat": 40.902, "lon": -119.112, "class": "TPV", "mode": 3}
{"lat": 40.903, "lon": -119.11099999999999, "class": "TPV", "mode": 3}
{"lat": 40.904, "lon": -119.11, "class": "TPV", "mode": 3}
{"lat": 40.905, "lon": -119.109, "class": "TPV", "mode": 3}
{"lat": 40.906, "lon": -119.10799999999999, "class": "TPV", "mode": 3}
{"lat": 40.907000000000004, "lon": -119.107, "class": "TPV", "mode": 3}
{"lat": 40.908, "lon": -119.106, "class": "TPV", "mode": 3}
{"lat": 40.909, "lon": -119.10499999999999, "class": "TPV", "mode": 3}
{"lat": 40.910000000000004, "lon": -119.104, "class": "TPV", "mode": 3}
{"lat": 40.911, "lon": -119.103, "class": "TPV", "mode": 3}
{"lat": 40.912, "lon": -119.10199999999999, "class": "TPV", "mode": 3}
{"lat": 40.913000000000004, "lon": -119.101, "class": "TPV", "mode": 3}
{"lat": 40.914, "lon": -119.1, "class": "TPV", "mode": 3}
{"lat": 40.915, "lon": -119.09899999999999, "class": "TPV", "mode": 3}
{"lat": 40.916000000000004, "lon": -119.098, "class": "TPV", "mode": 3}
{"lat": 40.917, "lon": -119.097, "class": "TPV", "mode": 3}
{"lat": 40.918, "lon": -119.09599999999999, "class": "TPV", "mode": 3}
{"lat": 40.919000000000004, "lon": -119.095, "class": "TPV", "mode": 3}
{"lat": 40.92, "lon": -119.094, "class": "TPV", "mode": 3}
{"lat": 40.921, "lon": -119.09299999999999, "class": "TPV", "mode": 3}
{"lat": 40.922000000000004, "lon": -119.092, "class": "TPV", "mode": 3}
{"lat": 40.923, "lon": -119.091, "class": "TPV", "mode": 3}
{"lat": 40.924, "lon": -119.08999999999999, "class": "TPV", "mode": 3}
{"lat": 40.925000000000004, "lon": -119.089, "class": "TPV", "mode": 3}
{"lat": 40.926, "lon": -119.088, "class": "TPV", "mode": 3}
{"lat": 40.927, "lon": -119.08699999999999, "class": "TPV", "mode": 3}
{"lat": 40.928000000000004, "lon": -119.086, "class": "TPV", "mode": 3}
{"lat": 40.929, "lon": -119.085, "class": "TPV", "mode": 3}
{"lat": 40.93, "lon": -119.08399999999999, "class": "TPV", "mode": 3}
{"lat": 40.931000000000004, "lon": -119.083, "class": "TPV", "mode": 3}
{"lat": 40.932, "lon": -119.082, "class": "TPV", "mode": 3}
{"lat": 40.933, "lon": -119.08099999999999, "class": "TPV", "mode": 3}
{"lat": 40.934000000000005, "lon": -119.08, "class": "TPV", "mode": 3}
{"lat": 40.935, "lon": -119.079, "class": "TPV", "mode": 3}
{"lat": 40.936, "lon": -119.07799999999999, "class": "TPV", "mode": 3}
{"lat": 40.937000000000005, "lon": -119.077, "class": "TPV", "mode": 3}
{"lat": 40.938, "lon": -119.076, "class": "TPV", "mode": 3}
{"lat": 40.939, "lon": -119.07499999999999, "class": "TPV", "mode": 3}
{"lat": 40.94, "lon": -119.074, "class": "TPV", "mode": 3}
{"lat": 40.941, "lon": -119.073, "class": "TPV", "mode": 3}
{"lat": 40.942, "lon": -119.07199999999999, "class": "TPV", "mode": 3}
{"lat": 40.943, "lon": -119.071, "class": "TPV", "mode": 3}
{"lat": 40.944, "lon": -119.07, "class": "TPV", "mode": 3}
{"lat": 40.945, "lon": -119.06899999999999, "class": "TPV", "mode": 3}
{"lat": 40.946, "lon": -119.068, "class": "TPV", "mode": 3}
{"lat": 40.947, "lon": -119.067, "class": "TPV", "mode": 3}
{"lat": 40.948, "lon": -119.06599999999999, "class": "TPV", "mode": 3}
{"lat": 40.949, "lon": -119.065, "class": "TPV", "mode": 3}
{"lat": 40.95, "lon": -119.064, "class": "TPV", "mode": 3}
{"lat": 40.951, "lon": -119.06299999999999, "class": "TPV", "mode": 3}
{"lat": 40.952, "lon": -119.062, "class": "TPV", "mode": 3}
{"lat": 40.953, "lon": -119.06099999999999, "class": "TPV", "mode": 3}
{"lat": 40.954, "lon": -119.05999999999999, "class": "TPV", "mode": 3}
{"lat": 40.955, "lon": -119.059, "class": "TPV", "mode": 3}
{"lat": 40.956, "lon": -119.05799999999999, "class": "TPV", "mode": 3}
{"lat": 40.957, "lon": -119.05699999999999, "class": "TPV", "mode": 3}
{"lat": 40.958, "lon": -119.056, "class": "TPV", "mode": 3}
{"lat": 40.959, "lon": -119.05499999999999, "class": "TPV", "mode": 3}
{"lat": 40.96, "lon": -119.05399999999999, "class": "TPV", "mode": 3}
{"lat": 40.961, "lon": -119.053, "class": "TPV", "mode": 3}
{"lat": 40.962, "lon": -119.05199999999999, "class": "TPV", "mode": 3}
{"lat": 40.963, "lon": -119.05099999999999, "class": "TPV", "mode": 3}
{"lat": 40.964, "lon": -119.05, "class": "TPV", "mode": 3}
{"lat": 40.965, "lon": -119.04899999999999, "class": "TPV", "mode": 3}
{"lat": 40.966, "lon": -119.04799999999999, "class": "TPV", "mode": 3}
{"lat": 40.967, "lon": -119.047, "class": "TPV", "mode": 3}
{"lat": 40.968, "lon": -119.04599999999999, "class": "TPV", "mode": 3}
{"lat": 40.969, "lon": -119.04499999999999, "class": "TPV", "mode": 3}
{"lat": 40.97, "lon": -119.044, "class": "TPV", "mode": 3}
{"lat": 40.971000000000004, "lon": -119.04299999999999, "class": "TPV", "mode": 3}
{"lat": 40.972, "lon": -119.042, "class": "TPV", "mode": 3}
{"lat": 40.973, "lon": -119.041, "class": "TPV", "mode": 3}
{"lat": 40.974000000000004, "lon": -119.03999999999999, "class": "TPV", "mode": 3}
{"lat": 40.975, "lon": -119.039, "class": "TPV", "mode": 3}
{"lat": 40.976, "lon": -119.038, "class": "TPV", "mode": 3}
{"lat": 40.977000000000004, "lon": -119.03699999999999, "class": "TPV", "mode": 3}
{"lat": 40.978, "lon": -119.036, "class": "TPV", "mode": 3}
{"lat": 40.979, "lon": -119.035, "class": "TPV", "mode": 3}
{"lat": 40.980000000000004, "lon": -119.03399999999999, "class": "TPV", "mode": 3}
{"lat": 40.981, "lon": -119.033, "class": "TPV", "mode": 3}
{"lat": 40.982, "lon": -119.032, "class": "TPV", "mode": 3}
