{"lat": 40.783, "lon": -119.231, "class": "TPV", "mode": 3}
{"lat": 40.783300000000004, "lon": -119.2307, "class": "TPV", "mode": 3}
{"lat": 40.7836, "lon": -119.23039999999999, "class": "TPV", "mode": 3}
{"lat": 40.7839, "lon": -119.2301, "class": "TPV", "mode": 3}
{"lat": 40.7842, "lon": -119.2298, "class": "TPV", "mode": 3}
{"lat": 40.7845, "lon": -119.2295, "class": "TPV", "mode": 3}
{"lat": 40.784800000000004, "lon": -119.22919999999999, "class": "TPV", "mode": 3}
{"lat": 40.7851, "lon": -119.2289, "class": "TPV", "mode": 3}
{"lat": 40.7854, "lon": -119.2286, "class": "TPV", "mode": 3}
{"lat": 40.7857, "lon": -119.22829999999999, "class": "TPV", "mode": 3}
{"lat": 40.786, "lon": -119.228, "class": "TPV", "mode": 3}
{"lat": 40.786300000000004, "lon": -119.2277, "class": "TPV", "mode": 3}
{"lat": 40.7866, "lon": -119.22739999999999, "class": "TPV", "mode": 3}
{"lat": 40.7869, "lon": -119.2271, "class": "TPV", "mode": 3}
{"lat": 40.7872, "lon": -119.2268, "class": "TPV", "mode": 3}
{"lat": 40.7875, "lon": -119.2265, "class": "TPV", "mode": 3}
{"lat": 40.787800000000004, "lon": -119.22619999999999, "class": "TPV", "mode": 3}
{"lat": 40.7881, "lon": -119.2259, "class": "TPV", "mode": 3}
{"lat": 40.7884, "lon": -119.2256, "class": "TPV", "mode": 3}
{"lat": 40.7887, "lon": -119.22529999999999, "class": "TPV", "mode": 3}
{"lat": 40.789, "lon": -119.225, "class": "TPV", "mode": 3}
{"lat": 40.789300000000004, "lon": -119.2247, "class": "TPV", "mode": 3}
{"lat": 40.7896, "lon": -119.22439999999999, "class": "TPV", "mode": 3}
{"lat": 40.7899, "lon": -119.22409999999999, "class": "TPV", "mode": 3}
{"lat": 40.7902, "lon": -119.2238, "class": "TPV", "mode": 3}
{"lat": 40.7905, "lon": -119.2235, "class": "TPV", "mode": 3}
{"lat": 40.790800000000004, "lon": -119.22319999999999, "class": "TPV", "mode": 3}
{"lat": 40.7911, "lon": -119.2229, "class": "TPV", "mode": 3}
{"lat": 40.7914, "lon": -119.2226, "class": "TPV", "mode": 3}
{"lat": 40.7917, "lon": -119.22229999999999, "class": "TPV", "mode": 3}
{"lat": 40.792, "lon": -119.222, "class": "TPV", "mode": 3}
{"lat": 40.792300000000004, "lon": -119.2217, "class": "TPV", "mode": 3}
{"lat": 40.7926, "lon": -119.22139999999999, "class": "TPV", "mode": 3}
{"lat": 40.7929, "lon": -119.22109999999999, "class": "TPV", "mode": 3}
{"lat": 40.7932, "lon": -119.2208, "class": "TPV", "mode": 3}
{"lat": 40.7935, "lon": -119.2205, "class": "TPV", "mode": 3}
{"lat": 40.793800000000005, "lon": -119.22019999999999, "class": "TPV", "mode": 3}
{"lat": 40.7941, "lon": -119.2199, "class": "TPV", "mode": 3}
{"lat": 40.7944, "lon": -119.2196, "class": "TPV", "mode": 3}
{"lat": 40.7947, "lon": -119.21929999999999, "class": "TPV", "mode": 3}
{"lat": 40.795, "lon": -119.219, "class": "TPV", "mode": 3}
{"lat": 40.795300000000005, "lon": -119.2187, "class": "TPV", "mode": 3}
{"lat": 40.7956, "lon": -119.21839999999999, "class": "TPV", "mode": 3}
{"lat": 40.7959, "lon": -119.21809999999999, "class": "TPV", "mode": 3}
{"lat": 40.7962, "lon": -119.2178, "class": "TPV", "mode": 3}
{"lat": 40.7965, "lon": -119.2175, "class": "TPV", "mode": 3}
{"lat": 40.796800000000005, "lon": -119.21719999999999, "class": "TPV", "mode": 3}
{"lat": 40.7971, "lon": -119.2169, "class": "TPV", "mode": 3}
{"lat": 40.7974, "lon": -119.2166, "class": "TPV", "mode": 3}
{"lat": 40.7977, "lon": -119.21629999999999, "class": "TPV", "mode": 3}
{"lat": 40.798, "lon": -119.216, "class": "TPV", "mode": 3}
{"lat": 40.798300000000005, "lon": -119.2157, "class": "TPV", "mode": 3}
{"lat": 40.7986, "lon": -119.21539999999999, "class": "TPV", "mode": 3}
{"lat": 40.7989, "lon": -119.21509999999999, "class": "TPV", "mode": 3}
{"lat": 40.7992, "lon": -119.2148, "class": "TPV", "mode": 3}
{"lat": 40.7995, "lon": -119.2145, "class": "TPV", "mode": 3}
{"lat": 40.799800000000005, "lon": -119.21419999999999, "class": "TPV", "mode": 3}
{"lat": 40.8001, "lon": -119.2139, "class": "TPV", "mode": 3}
{"lat": 40.8004, "lon": -119.2136, "class": "TPV", "mode": 3}
{"lat": 40.8007, "lon": -119.21329999999999, "class": "TPV", "mode": 3}
{"lat": 40.801, "lon": -119.213, "class": "TPV", "mode": 3}
{"lat": 40.801300000000005, "lon": -119.2127, "class": "TPV", "mode": 3}
{"lat": 40.8016, "lon": -119.21239999999999, "class": "TPV", "mode": 3}
{"lat": 40.8019, "lon": -119.21209999999999, "class": "TPV", "mode": 3}
{"lat": 40.8022, "lon": -119.2118, "class": "TPV", "mode": 3}
{"lat": 40.8025, "lon": -119.2115, "class": "TPV", "mode": 3}
{"lat": 40.8028, "lon": -119.21119999999999, "class": "TPV", "mode": 3}
{"lat": 40.8031, "lon": -119.2109, "class": "TPV", "mode": 3}
{"lat": 40.8034, "lon": -119.2106, "class": "TPV", "mode": 3}
{"lat": 40.8037, "lon": -119.21029999999999, "class": "TPV", "mode": 3}
{"lat": 40.804, "lon": -119.21, "class": "TPV", "mode": 3}
{"lat": 40.8043, "lon": -119.2097, "class": "TPV", "mode": 3}
{"lat": 40.8046, "lon": -119.20939999999999, "class": "TPV", "mode": 3}
{"lat": 40.8049, "lon": -119.20909999999999, "class": "TPV", "mode": 3}
{"lat": 40.8052, "lon": -119.2088, "class": "TPV", "mode": 3}
{"lat": 40.8055, "lon": -119.2085, "class": "TPV", "mode": 3}
{"lat": 40.8058, "lon": -119.20819999999999, "class": "TPV", "mode": 3}
{"lat": 40.8061, "lon": -119.2079, "class": "TPV", "mode": 3}
{"lat": 40.806400000000004, "lon": -119.2076, "class": "TPV", "mode": 3}
{"lat": 40.8067, "lon": -119.20729999999999, "class": "TPV", "mode": 3}
{"lat": 40.807, "lon": -119.207, "class": "TPV", "mode": 3}
{"lat": 40.8073, "lon": -119.2067, "class": "TPV", "mode": 3}
{"lat": 40.8076, "lon": -119.20639999999999, "class": "TPV", "mode": 3}
{"lat": 40.807900000000004, "lon": -119.20609999999999, "class": "TPV", "mode": 3}
{"lat": 40.8082, "lon": -119.2058, "class": "TPV", "mode": 3}
{"lat": 40.8085, "lon": -119.2055, "class": "TPV", "mode": 3}
{"lat": 40.8088, "lon": -119.20519999999999, "class": "TPV", "mode": 3}
{"lat": 40.8091, "lon": -119.2049, "class": "TPV", "mode": 3}
{"lat": 40.809400000000004, "lon": -119.2046, "class": "TPV", "mode": 3}
{"lat": 40.8097, "lon": -119.20429999999999, "class": "TPV", "mode": 3}
{"lat": 40.81, "lon": -119.204, "class": "TPV", "mode": 3}
{"lat": 40.8103, "lon": -119.2037, "class": "TPV", "mode": 3}
{"lat": 40.8106, "lon": -119.20339999999999, "class": "TPV", "mode": 3}
{"lat": 40.810900000000004, "lon": -119.20309999999999, "class": "TPV", "mode": 3}
{"lat": 40.8112, "lon": -119.2028, "class": "TPV", "mode": 3}
{"lat": 40.8115, "lon": -119.2025, "class": "TPV", "mode": 3}
{"lat": 40.8118, "lon": -119.20219999999999, "class": "TPV", "mode": 3}
{"lat": 40.8121, "lon": -119.2019, "class": "TPV", "mode": 3}
{"lat": 40.812400000000004, "lon": -119.2016, "class": "TPV", "mode": 3}
{"lat": 40.8127, "lon": -119.20129999999999, "class": "TPV", "mode": 3}
{"lat": 40.813, "lon": -119.201, "class": "TPV", "mode": 3}
{"lat": 40.8133, "lon": -119.2007, "class": "TPV", "mode": 3}
{"lat": 40.8136, "lon": -119.20039999999999, "class": "TPV", "mode": 3}
{"lat": 40.813900000000004, "lon": -119.20009999999999, "class": "TPV", "mode": 3}
{"lat": 40.8142, "lon": -119.1998, "class": "TPV", "mode": 3}
{"lat": 40.8145, "lon": -119.1995, "class": "TPV", "mode": 3}
{"lat": 40.8148, "lon": -119.19919999999999, "class": "TPV", "mode": 3}
{"lat": 40.8151, "lon": -119.1989, "class": "TPV", "mode": 3}
{"lat": 40.815400000000004, "lon": -119.1986, "class": "TPV", "mode": 3}
{"lat": 40.8157, "lon": -119.19829999999999, "class": "TPV", "mode": 3}
{"lat": 40.816, "lon": -119.198, "class": "TPV", "mode": 3}
{"lat": 40.8163, "lon": -119.1977, "class": "TPV", "mode": 3}
{"lat": 40.8166, "lon": -119.19739999999999, "class": "TPV", "mode": 3}
{"lat": 40.816900000000004, "lon": -119.19709999999999, "class": "TPV", "mode": 3}
{"lat": 40.8172, "lon": -119.1968, "class": "TPV", "mode": 3}
{"lat": 40.8175, "lon": -119.1965, "class": "TPV", "mode": 3}
{"lat": 40.8178, "lon": -119.19619999999999, "class": "TPV", "mode": 3}
{"lat": 40.8181, "lon": -119.1959, "class": "TPV", "mode": 3}
{"lat": 40.818400000000004, "lon": -119.1956, "class": "TPV", "mode": 3}
{"lat": 40.8187, "lon": -119.19529999999999, "class": "TPV", "mode": 3}
{"lat": 40.819, "lon": -119.195, "class": "TPV", "mode": 3}
{"lat": 40.8193, "lon": -119.1947, "class": "TPV", "mode": 3}
{"lat": 40.8196, "lon": -119.19439999999999, "class": "TPV", "mode": 3}
{"lat": 40.819900000000004, "lon": -119.19409999999999, "class": "TPV", "mode": 3}
{"lat": 40.8202, "lon": -119.1938, "class": "TPV", "mode": 3}
{"lat": 40.8205, "lon": -119.1935, "class": "TPV", "mode": 3}
{"lat": 40.8208, "lon": -119.19319999999999, "class": "TPV", "mode": 3}
{"lat": 40.8211, "lon": -119.1929, "class": "TPV", "mode": 3}
{"lat": 40.821400000000004, "lon": -119.1926, "class": "TPV", "mode": 3}
{"lat": 40.8217, "lon": -119.19229999999999, "class": "TPV", "mode": 3}
{"lat": 40.822, "lon": -119.192, "class": "TPV", "mode": 3}
{"lat": 40.8223, "lon": -119.1917, "class": "TPV", "mode": 3}
{"lat": 40.8226, "lon": -119.1914, "class": "TPV", "mode": 3}
{"lat": 40.822900000000004, "lon": -119.19109999999999, "class": "TPV", "mode": 3}
{"lat": 40.8232, "lon": -119.1908, "class": "TPV", "mode": 3}
{"lat": 40.8235, "lon": -119.1905, "class": "TPV", "mode": 3}
{"lat": 40.8238, "lon": -119.19019999999999, "class": "TPV", "mode": 3}
{"lat": 40.8241, "lon": -119.1899, "class": "TPV", "mode": 3}
{"lat": 40.824400000000004, "lon": -119.1896, "class": "TPV", "mode": 3}
{"lat": 40.8247, "lon": -119.18929999999999, "class": "TPV", "mode": 3}
{"lat": 40.825, "lon": -119.189, "class": "TPV", "mode": 3}
{"lat": 40.8253, "lon": -119.1887, "class": "TPV", "mode": 3}
{"lat": 40.8256, "lon": -119.1884, "class": "TPV", "mode": 3}
{"lat": 40.825900000000004, "lon": -119.18809999999999, "class": "TPV", "mode": 3}
{"lat": 40.8262, "lon": -119.1878, "class": "TPV", "mode": 3}
{"lat": 40.8265, "lon": -119.1875, "class": "TPV", "mode": 3}
{"lat": 40.8268, "lon": -119.18719999999999, "class": "TPV", "mode": 3}
{"lat": 40.8271, "lon": -119.1869, "class": "TPV", "mode": 3}
{"lat": 40.827400000000004, "lon": -119.1866, "class": "TPV", "mode": 3}
{"lat": 40.8277, "lon": -119.18629999999999, "class": "TPV", "mode": 3}
{"lat": 40.828, "lon": -119.18599999999999, "class": "TPV", "mode": 3}
{"lat": 40.8283, "lon": -119.1857, "class": "TPV", "mode": 3}
{"lat": 40.8286, "lon": -119.1854, "class": "TPV", "mode": 3}
{"lat": 40.828900000000004, "lon": -119.18509999999999, "class": "TPV", "mode": 3}
{"lat": 40.8292, "lon": -119.1848, "class": "TPV", "mode": 3}
{"lat": 40.8295, "lon": -119.1845, "class": "TPV", "mode": 3}
{"lat": 40.8298, "lon": -119.18419999999999, "class": "TPV", "mode": 3}
{"lat": 40.8301, "lon": -119.1839, "class": "TPV", "mode": 3}
{"lat": 40.830400000000004, "lon": -119.1836, "class": "TPV", "mode": 3}
{"lat": 40.8307, "lon": -119.18329999999999, "class": "TPV", "mode": 3}
{"lat": 40.831, "lon": -119.18299999999999, "class": "TPV", "mode": 3}
{"lat": 40.8313, "lon": -119.1827, "class": "TPV", "mode": 3}
{"lat": 40.8316, "lon": -119.1824, "class": "TPV", "mode": 3}
{"lat": 40.831900000000005, "lon": -119.18209999999999, "class": "TPV", "mode": 3}
{"lat": 40.8322, "lon": -119.1818, "class": "TPV", "mode": 3}
{"lat": 40.8325, "lon": -119.1815, "class": "TPV", "mode": 3}
{"lat": 40.8328, "lon": -119.18119999999999, "class": "TPV", "mode": 3}
{"lat": 40.8331, "lon": -119.1809, "class": "TPV", "mode": 3}
{"lat": 40.833400000000005, "lon": -119.1806, "class": "TPV", "mode": 3}
{"lat": 40.8337, "lon": -119.18029999999999, "class": "TPV", "mode": 3}
{"lat": 40.834, "lon": -119.17999999999999, "class": "TPV", "mode": 3}
{"lat": 40.8343, "lon": -119.1797, "class": "TPV", "mode": 3}
{"lat": 40.8346, "lon": -119.1794, "class": "TPV", "mode": 3}
{"lat": 40.834900000000005, "lon": -119.17909999999999, "class": "TPV", "mode": 3}
{"lat": 40.8352, "lon": -119.1788, "class": "TPV", "mode": 3}
{"lat": 40.8355, "lon": -119.1785, "class": "TPV", "mode": 3}
{"lat": 40.8358, "lon": -119.17819999999999, "class": "TPV", "mode": 3}
{"lat": 40.8361, "lon": -119.1779, "class": "TPV", "mode": 3}
{"lat": 40.836400000000005, "lon": -119.1776, "class": "TPV", "mode": 3}
{"lat": 40.8367, "lon": -119.17729999999999, "class": "TPV", "mode": 3}
{"lat": 40.837, "lon": -119.17699999999999, "class": "TPV", "mode": 3}
{"lat": 40.8373, "lon": -119.1767, "class": "TPV", "mode": 3}
{"lat": 40.8376, "lon": -119.1764, "class": "TPV", "mode": 3}
{"lat": 40.837900000000005, "lon": -119.17609999999999, "class": "TPV", "mode": 3}
{"lat": 40.8382, "lon": -119.1758, "class": "TPV", "mode": 3}
{"lat": 40.8385, "lon": -119.1755, "class": "TPV", "mode": 3}
{"lat": 40.8388, "lon": -119.17519999999999, "class": "TPV", "mode": 3}
{"lat": 40.8391, "lon": -119.1749, "class": "TPV", "mode": 3}
{"lat": 40.8394, "lon": -119.1746, "class": "TPV", "mode": 3}
{"lat": 40.8397, "lon": -119.17429999999999, "class": "TPV", "mode": 3}
{"lat": 40.84, "lon": -119.17399999999999, "class": "TPV", "mode": 3}
{"lat": 40.8403, "lon": -119.1737, "class": "TPV", "mode": 3}
{"lat": 40.8406, "lon": -119.1734, "class": "TPV", "mode": 3}
{"lat": 40.8409, "lon": -119.17309999999999, "class": "TPV", "mode": 3}
{"lat": 40.8412, "lon": -119.1728, "class": "TPV", "mode": 3}
{"lat": 40.8415, "lon": -119.1725, "class": "TPV", "mode": 3}
{"lat": 40.8418, "lon": -119.17219999999999, "class": "TPV", "mode": 3}
{"lat": 40.8421, "lon": -119.1719, "class": "TPV", "mode": 3}
{"lat": 40.8424, "lon": -119.1716, "class": "TPV", "mode": 3}
{"lat": 40.8427, "lon": -119.17129999999999, "class": "TPV", "mode": 3}
